{"name": "ALFIKRI", "nik": "1111111111111111", "address": "Jalan Paus/Sembilang 4 No 70", "ttl": "Pekanbaru ", "state": "RIAU", "zip": "28282", "country": "ID", "coordinates": {"lat": -7.005196926860842, "lng": 107.63629139892531}, "image": "C:/Users/Lakuna/OneDrive/Documents/GitHub/tubes_pbo_maps/uploadsALFIKRI_photo.png"}
{"name": "Ryan", "nik": "1231231231231231", "address": "Jalan Paus/Sembilang 4 No 70", "ttl": "Jawa", "state": "RIAU", "zip": "28282", "country": "ID", "coordinates": {"lat": -7.00523419747141, "lng": 107.6364844788464}, "image": "C:/Users/Lakuna/OneDrive/Documents/GitHub/tubes_pbo_maps/uploadsRyan_photo.png"}
{"name": "Hasan", "nik": "1231241231232123", "address": "ASdaw", "ttl": "Bandung ", "state": "AaAasddasasd", "zip": "1214124", "country": "ASDAWDafawf", "coordinates": {"lat": -7.004653840483163, "lng": 107.63612502223826}, "image": "C:/Users/ryand/Documents/GitHub/tubes_pbo_maps/uploadsHasan_photo.png"}
{"name": "Hasanwwww", "nik": "1231241231232123", "address": "ASdaw", "ttl": "Bandung ", "state": "AaAasddasasd", "zip": "1214124", "country": "ASDAWDafawf", "coordinates": {"lat": -7.004653840483163, "lng": 107.63612502223826}, "image": "C:/Users/ryand/Documents/GitHub/tubes_pbo_maps/uploadsHasan_photo.png"}
{"name": "1", "nik": "1231241231232123", "address": "ASdaw", "ttl": "Bandung ", "state": "AaAasddasasd", "zip": "1214124", "country": "ASDAWDafawf", "coordinates": {"lat": -7.004653840483163, "lng": 107.63612502223826}, "image": "C:/Users/ryand/Documents/GitHub/tubes_pbo_maps/uploadsHasan_photo.png"}
{"name": "2", "nik": "1231241231232123", "address": "ASdaw", "ttl": "Bandung ", "state": "AaAasddasasd", "zip": "1214124", "country": "ASDAWDafawf", "coordinates": {"lat": -7.004653840483163, "lng": 107.63612502223826}, "image": "C:/Users/ryand/Documents/GitHub/tubes_pbo_maps/uploadsHasan_photo.png"}
